[
  {
    "slug": "msi",
    "name": "MSI Surfaces",
    "address": "4405 W Roosevelt St, Phoenix, AZ 85043",
    "phone": "(602) 393-6330",
    "website": "https://www.msisurfaces.com",
    "tag": "Granite - Quartz - Porcelain",
    "lat": 33.4583,
    "lng": -112.1407,
    "description": "MSI Surfaces is one of the largest distributors of natural stone, quartz, porcelain, and flooring in the Phoenix metro area. Their showroom features thousands of slabs available for viewing.",
    "hours": "Mon-Fri 7:00 AM - 4:30 PM, Sat 8:00 AM - 12:00 PM",
    "brandKeys": {
      "countertops": ["msi-surfaces"],
      "slabs": ["MSI"],
      "flooring": ["msi"]
    }
  },
  {
    "slug": "arizona-tile",
    "name": "Arizona Tile",
    "address": "8829 S Priest Dr, Tempe, AZ 85284",
    "phone": "(480) 893-9393",
    "website": "https://www.arizonatile.com/locations/tempe/",
    "tag": "Showroom & Slab Warehouse",
    "lat": 33.3456,
    "lng": -111.9606,
    "description": "Arizona Tile operates a full showroom and slab warehouse in Tempe. Browse granite, quartz, marble, quartzite, and porcelain slabs in their indoor viewing area.",
    "hours": "Mon-Fri 7:00 AM - 5:00 PM, Sat 9:00 AM - 4:00 PM",
    "brandKeys": {
      "countertops": ["arizona-tile"],
      "slabs": ["Arizona Tile"],
      "flooring": []
    }
  },
  {
    "slug": "cactus-stone",
    "name": "Cactus Stone & Tile",
    "address": "401 S 50th St, Phoenix, AZ 85034",
    "phone": "(602) 275-6400",
    "website": "https://cactustile.com/",
    "tag": "Natural Stone Specialists",
    "lat": 33.4438,
    "lng": -111.9811,
    "description": "Cactus Stone & Tile specializes in natural stone and tile products. Visit their Phoenix showroom to see their full selection of stone and tile materials.",
    "hours": "Mon-Fri 7:00 AM - 5:00 PM, Sat 8:00 AM - 12:00 PM",
    "brandKeys": {
      "countertops": [],
      "slabs": [],
      "flooring": []
    }
  },
  {
    "slug": "cosentino",
    "name": "Cosentino Center",
    "address": "8307 S Priest Dr, Tempe, AZ 85284",
    "phone": "(480) 763-9400",
    "website": "https://www.cosentino.com/usa/cosentino-center/",
    "tag": "Silestone - Dekton - Sensa",
    "lat": 33.3511,
    "lng": -111.9606,
    "description": "Cosentino Center is the exclusive showroom for Silestone, Dekton, and Sensa surfaces. View full slabs and design samples in their state-of-the-art facility.",
    "hours": "Mon-Fri 8:00 AM - 5:00 PM",
    "brandKeys": {
      "countertops": ["cosentino", "silestone", "sensa"],
      "slabs": ["Cosentino"],
      "flooring": []
    }
  },
  {
    "slug": "cambria",
    "name": "Cambria Gallery",
    "address": "1250 N Fairway Dr, Avondale, AZ 85323",
    "phone": "(623) 932-1482",
    "website": "https://www.cambriausa.com/galleries/phoenix/",
    "tag": "Premium Quartz",
    "lat": 33.4536,
    "lng": -112.3234,
    "description": "Cambria Gallery showcases their premium quartz surfaces in a dedicated gallery setting. Experience their full collection of American-made quartz countertops.",
    "hours": "Mon-Fri 9:00 AM - 5:00 PM",
    "brandKeys": {
      "countertops": ["cambria"],
      "slabs": ["Cambria"],
      "flooring": []
    }
  },
  {
    "slug": "daltile",
    "name": "Daltile Stone & Slab",
    "address": "2040 W Rio Salado Pkwy, Tempe, AZ 85281",
    "phone": "(602) 243-2772",
    "website": "https://locations.daltile.com/az/tempe/393/",
    "tag": "Tile - Slabs - Design Center",
    "lat": 33.4317,
    "lng": -111.9642,
    "description": "Daltile Design Studio offers tile, stone slabs, and countertop surfaces. Their design center helps you visualize materials in your space.",
    "hours": "Mon-Fri 7:00 AM - 5:00 PM, Sat 10:00 AM - 3:00 PM",
    "brandKeys": {
      "countertops": ["daltile"],
      "slabs": [],
      "flooring": []
    }
  },
  {
    "slug": "bolder-image-stone",
    "name": "Bolder Image Stone",
    "address": "4101 W Van Buren St, Phoenix, AZ 85009",
    "phone": "(602) 484-7700",
    "website": "https://bolderimagestone.com/",
    "tag": "Granite - Quartzite - Marble",
    "lat": 33.4516,
    "lng": -112.1306,
    "description": "Bolder Image Stone carries a wide selection of granite, quartzite, and marble slabs. Browse their warehouse to find unique natural stone for your project.",
    "hours": "Mon-Fri 8:00 AM - 5:00 PM, Sat 9:00 AM - 1:00 PM",
    "brandKeys": {
      "countertops": ["bolder-image-stone"],
      "slabs": ["Bolder Image Stone"],
      "flooring": []
    }
  },
  {
    "slug": "aracruz",
    "name": "Aracruz Granite",
    "address": "2310 W Sherman St, Phoenix, AZ 85009",
    "phone": "(602) 252-1171",
    "website": "http://aracruzgranite.com/",
    "tag": "Appointment Required",
    "lat": 33.4283,
    "lng": -112.0964,
    "description": "Aracruz Granite is a wholesale granite supplier in Phoenix. Contact them to schedule an appointment to view their slab inventory.",
    "hours": "By Appointment Only",
    "brandKeys": {
      "countertops": [],
      "slabs": [],
      "flooring": []
    }
  },
  {
    "slug": "classic-surfaces",
    "name": "Classic Surfaces",
    "address": "4645 W McDowell Rd, Phoenix, AZ 85035",
    "phone": "(219) 213-4239",
    "website": "https://www.classic-surfaces.com/",
    "tag": "Warehouse Location",
    "lat": 33.4650,
    "lng": -112.1378,
    "description": "Classic Surfaces operates a warehouse location in Phoenix carrying natural stone slabs. Call ahead to schedule a visit.",
    "hours": "Mon-Fri 8:00 AM - 4:00 PM",
    "brandKeys": {
      "countertops": [],
      "slabs": ["Classic Surfaces"],
      "flooring": []
    }
  },
  {
    "slug": "architectural-surfaces",
    "name": "Architectural Surfaces",
    "address": "9175 E Pima Center Pkwy, Scottsdale, AZ 85258",
    "phone": "(480) 210-3570",
    "website": "https://arcsurfaces.com/",
    "tag": "Appointment Required",
    "lat": 33.6114,
    "lng": -111.8867,
    "description": "Architectural Surfaces is a premium surface distributor in Scottsdale. Schedule an appointment to view their curated selection of stone and surface materials.",
    "hours": "By Appointment Only",
    "brandKeys": {
      "countertops": ["pentalquartz", "lx-hausys"],
      "slabs": ["PentalQuartz", "LX Hausys"],
      "flooring": []
    }
  },
  {
    "slug": "esi",
    "name": "ESI - Edgebanding Services",
    "address": "150 S. Kyrene Rd #9, Chandler, AZ 85226",
    "phone": "(480) 829-8900",
    "website": "https://edgebanding-services.com/locations/chandler-az/",
    "tag": "Hanstone Quartz Distributor",
    "lat": 33.3062,
    "lng": -111.9418,
    "description": "ESI (Edgebanding Services Inc.) is an authorized distributor of Hanstone Quartz surfaces. Visit their Chandler location to view slab inventory and samples.",
    "hours": "Mon-Fri 7:00 AM - 4:00 PM",
    "brandKeys": {
      "countertops": ["hanstone"],
      "slabs": ["Hanstone Quartz"],
      "flooring": []
    }
  }
]
